City_ID,City,Lat,Lng,Max Temp,Humidity,Cloudiness,Wind Speed,Country,Date
0,ushuaia,-54.8,-68.3,4.81,75,20,7.2,AR,1680916848
1,rikitea,-23.1203,-134.9692,24.99,69,67,6.04,PF,1680916909
2,aripuana,-9.1667,-60.6333,21.94,98,25,0.41,BR,1680916975
3,vaini,-21.2,-175.2,30.09,79,40,6.17,TO,1680916917
4,khatanga,71.9667,102.5,-21.73,95,100,6.29,RU,1680916916
5,bredasdorp,-34.5322,20.0403,14.42,74,100,1.05,ZA,1680916948
6,port elizabeth,-33.918,25.5701,18.16,96,75,2.24,ZA,1680916941
7,chokurdakh,70.6333,147.9167,-18.76,93,22,1.64,RU,1680916957
8,hunchun,42.8675,130.3581,4.35,26,54,5.63,CN,1680916976
9,hermanus,-34.4187,19.2345,13.22,82,100,3.79,ZA,1680916912
10,cape town,-33.9258,18.4232,15.61,80,75,4.47,ZA,1680916628
11,ossora,59.2353,163.0719,-6.37,70,2,1.57,RU,1680916976
12,cidreira,-30.1811,-50.2056,20.96,76,95,4.84,BR,1680916920
13,roald,62.5833,6.1333,6.29,74,39,2.53,NO,1680916977
14,zhigansk,66.7697,123.3711,-8.93,93,100,11.65,RU,1680916977
15,coquimbo,-29.9533,-71.3436,15.85,94,100,1.03,CL,1680916904
16,airai,-8.9266,125.4092,19.38,69,100,1.83,TL,1680916949
17,fortuna,40.5982,-124.1573,11.48,81,100,1.34,US,1680916978
18,de-kastri,51.4667,140.7833,-0.29,86,100,3.07,RU,1680916978
19,atuona,-9.8,-139.0333,27.47,75,100,8.85,PF,1680916900
20,jamestown,42.097,-79.2353,2.77,68,0,2.57,US,1680916727
21,kavieng,-2.5744,150.7967,28.09,80,100,4.19,PG,1680916979
22,ancud,-41.8697,-73.8203,9.57,90,100,2.2,CL,1680916912
23,hamamatsu,34.7,137.7333,17.79,39,0,10.14,JP,1680916979
24,stephenville,32.2207,-98.2023,15.69,66,100,2.06,US,1680916980
25,cherskiy,68.75,161.3,-16.95,87,93,1.77,RU,1680916944
26,polewali,-3.4324,119.3435,28.77,64,76,1.49,ID,1680916980
27,montceau-les-mines,46.6667,4.3667,0.51,94,8,1.1,FR,1680916980
28,lake charles,30.2131,-93.2044,16.0,95,100,7.72,US,1680916851
29,kloulklubed,7.0419,134.2556,28.28,72,100,6.39,PW,1680916981
30,kapaa,22.0752,-159.319,26.99,82,100,7.2,US,1680916905
31,matamoros,25.5333,-103.25,27.06,25,0,3.09,MX,1680916981
32,mahebourg,-20.4081,57.7,24.03,94,40,2.06,MU,1680916952
33,sao joao da barra,-21.6403,-41.0511,24.25,90,100,2.69,BR,1680916982
34,tasiilaq,65.6145,-37.6368,0.09,81,94,12.69,GL,1680916944
35,karratha,-20.7377,116.8463,30.96,35,64,2.89,AU,1680916983
36,vao,-22.6667,167.4833,24.14,74,3,3.02,NC,1680916983
37,tuktoyaktuk,69.4541,-133.0374,-16.0,85,75,8.75,CA,1680916965
38,butaritari,3.0707,172.7902,27.86,79,36,8.02,KI,1680916930
39,ponta do sol,32.6667,-17.1,18.34,70,93,0.55,PT,1680916986
40,barrow,71.2906,-156.7887,-20.99,77,100,6.17,US,1680916949
41,puerto ayora,-0.7393,-90.3518,26.97,88,100,1.64,EC,1680916906
42,hobart,-42.8794,147.3294,16.92,62,40,6.69,AU,1680916818
43,lebu,-37.6167,-73.65,11.89,88,100,6.37,CL,1680916987
44,punta arenas,-53.15,-70.9167,4.06,87,20,6.69,CL,1680916901
45,bassano,50.7834,-112.4685,6.27,57,100,6.16,CA,1680916988
46,leh,34.1667,77.5833,-10.3,66,0,1.03,IN,1680916988
47,sao filipe,14.8961,-24.4956,22.02,79,100,2.94,CV,1680916957
48,yukamenskoye,57.8865,52.2416,-3.58,79,25,0.76,RU,1680916989
49,albany,42.6001,-73.9662,3.46,50,100,0.89,US,1680916911
50,juba,4.8517,31.5825,25.8,61,63,1.66,SS,1680916989
51,padang,-0.9492,100.3543,26.03,82,100,1.19,ID,1680916990
52,diu,20.7141,70.9822,25.97,49,6,2.3,IN,1680916990
53,saskylakh,71.9167,114.0833,-20.75,94,99,4.99,RU,1680916960
54,sinnamary,5.3833,-52.95,24.54,79,68,4.12,GF,1680916991
55,georgetown,5.4112,100.3354,27.96,89,20,1.54,MY,1680916914
56,bonthe,7.5264,-12.505,26.15,87,17,1.92,SL,1680916992
57,new norfolk,-42.7826,147.0587,16.72,61,98,1.79,AU,1680916918
58,port alfred,-33.5906,26.891,17.66,86,15,3.95,ZA,1680916903
59,vestmannaeyjar,63.4427,-20.2734,8.16,79,100,14.22,IS,1680916993
60,mount gambier,-37.8333,140.7667,14.29,66,100,4.69,AU,1680916993
61,mount isa,-20.7333,139.5,29.87,25,12,4.63,AU,1680916994
62,kambove,-10.8764,26.5969,15.08,98,51,1.48,CD,1680916994
63,mataura,-46.1927,168.8643,14.15,51,0,1.93,NZ,1680916913
64,saint-joseph,-21.3667,55.6167,22.48,85,57,3.82,RE,1680916996
65,hovd,48.0056,91.6419,4.2,30,100,3.55,MN,1680916996
66,torbay,47.6666,-52.7314,2.54,88,100,9.26,CA,1680916918
67,bluff,-46.6,168.3333,14.33,59,0,2.26,NZ,1680916903
68,kamen-rybolov,44.7481,132.0403,2.5,34,0,1.61,RU,1680916997
69,campagna,40.6653,15.1059,7.42,83,76,0.89,IT,1680916997
70,yulara,-25.2406,130.9889,23.59,35,5,6.51,AU,1680916998
71,qaanaaq,77.484,-69.3632,-28.29,69,0,2.73,GL,1680916964
72,mar del plata,-38.0023,-57.5575,18.94,79,0,4.92,AR,1680916831
73,kavaratti,10.5669,72.642,27.89,71,11,2.89,IN,1680916967
74,mamlyutka,54.9375,68.5394,-8.99,53,0,1.48,KZ,1680916999
75,hithadhoo,-0.6,73.0833,27.99,63,93,2.1,MV,1680916874
76,busselton,-33.65,115.3333,17.48,52,0,5.82,AU,1680916902
77,port hedland,-20.3167,118.5667,32.03,55,22,1.54,AU,1680916764
78,charters towers,-20.1,146.2667,31.98,30,93,5.73,AU,1680917001
79,chuy,-33.6971,-53.4616,16.76,73,13,1.86,UY,1680917001
80,tigil,57.8,158.6667,-3.9,71,26,3.92,RU,1680917002
81,banepa,27.6298,85.5214,13.96,77,40,1.54,NP,1680917002
82,grand gaube,-20.0064,57.6608,24.1,79,19,1.79,MU,1680917003
83,ust-maya,60.4167,134.5333,-6.62,86,100,5.01,RU,1680917004
84,katsuura,35.1333,140.3,18.82,52,0,11.45,JP,1680916962
85,castrovillari,39.8203,16.2123,1.83,88,1,2.43,IT,1680917004
86,norman wells,65.282,-126.8329,-5.98,58,75,7.72,CA,1680916941
87,salaverry,-8.2333,-78.9667,26.21,80,97,2.62,PE,1680917005
88,kodiak,57.79,-152.4072,0.73,64,100,3.6,US,1680916922
89,tessalit,20.1986,1.0114,23.48,15,74,3.57,ML,1680917007
90,montoro,38.0241,-4.3834,7.32,43,0,0.7,ES,1680917007
91,bambanglipuro,-7.95,110.2833,26.17,76,100,1.26,ID,1680917007
92,marsh harbour,26.5412,-77.0636,24.41,75,85,6.77,BS,1680917008
93,salto,-31.3833,-57.9667,19.37,80,5,1.79,UY,1680917008
94,dzilam gonzalez,21.2833,-88.9333,27.98,50,12,3.79,MX,1680917009
95,vallenar,-28.5708,-70.7581,19.98,65,1,0.94,CL,1680916965
96,ribeira grande,38.5167,-28.7,11.54,76,22,2.68,PT,1680916960
97,fort nelson,58.8053,-122.7002,13.77,26,75,4.63,CA,1680917010
98,bilma,18.6853,12.9164,29.19,11,6,3.5,NE,1680917010
99,santona,43.4439,-3.4576,10.18,76,100,1.41,ES,1680917011
100,aksu,41.1231,80.2644,8.86,21,0,2.67,CN,1680917011
101,abong mbang,3.9833,13.1833,20.94,91,87,1.29,CM,1680917012
102,paamiut,61.994,-49.6678,-1.55,72,68,3.9,GL,1680917012
103,bambous virieux,-20.3428,57.7575,24.01,94,40,2.06,MU,1680916941
104,zarate,-34.0981,-59.0286,19.39,79,2,1.79,AR,1680917012
105,fairbanks,64.8378,-147.7164,-6.06,44,0,3.09,US,1680916832
106,manta,-0.95,-80.7333,26.88,83,75,1.54,EC,1680917013
107,weyburn,49.6668,-103.8511,-3.88,93,99,11.32,CA,1680917014
108,teknaf,20.8624,92.3058,25.76,44,0,2.86,BD,1680917014
109,cayce,33.9657,-81.074,9.34,80,100,8.23,US,1680917014
110,yellowknife,62.456,-114.3525,5.29,56,75,7.72,CA,1680916903
111,kachiry,53.0675,76.1036,-7.51,55,0,4.97,KZ,1680917015
112,esperance,-33.8667,121.9,16.12,72,100,5.22,AU,1680917016
113,santa fe,-31.6333,-60.7,23.32,75,4,1.34,AR,1680916999
114,camopi,3.1655,-52.3158,22.33,91,36,1.72,GF,1680917017
115,bridlington,54.0831,-0.1919,6.05,88,71,1.21,GB,1680917017
116,chivay,-15.6383,-71.6011,7.98,83,100,0.54,PE,1680917018
117,owando,-0.4819,15.8999,22.03,93,98,0.15,CG,1680917018
118,malanje,-9.5402,16.341,17.73,98,100,2.73,AO,1680917018
119,camacha,33.0833,-16.3333,15.68,59,75,1.54,PT,1680917019
120,labuhan,-6.8844,112.2051,26.75,79,100,3.67,ID,1680917019
121,kropotkin,45.4375,40.5756,10.19,85,100,1.75,RU,1680917020
122,hilo,19.7297,-155.09,25.85,73,75,4.12,US,1680916928
123,gat,31.61,34.7642,19.67,72,51,0.72,IL,1680917020
124,victoria,22.2855,114.1577,23.44,80,100,0.45,HK,1680916922
125,ilulissat,69.2167,-51.1,-19.88,97,100,1.57,GL,1680916945
126,tiksi,71.6872,128.8694,-18.42,90,57,7.12,RU,1680916909
127,maumere,-8.6199,122.2111,26.23,81,100,4.22,ID,1680917021
128,sawtell,-30.3833,153.1,24.01,43,0,3.6,AU,1680917021
129,louga,58.7372,29.8453,-1.71,98,12,1.3,RU,1680917022
130,port-gentil,-0.7193,8.7815,27.65,82,100,4.87,GA,1680917022
131,arraial do cabo,-22.9661,-42.0278,22.84,93,100,6.14,BR,1680917022
132,hambantota,6.1241,81.1185,25.41,79,52,4.33,LK,1680917022
133,prince rupert,54.3161,-130.3201,7.05,70,0,9.77,CA,1680916835
134,tuatapere,-46.1333,167.6833,15.16,51,0,0.82,NZ,1680917023
135,goundi,9.3627,17.366,29.97,35,25,1.84,TD,1680917023
136,buala,-8.145,159.5921,30.22,66,94,2.93,SB,1680917023
137,turukhansk,65.8167,87.9833,-18.76,94,100,5.86,RU,1680916922
138,ovsyanka,55.9575,92.5519,-11.46,70,97,1.91,RU,1680917024
139,soyo,-6.1349,12.3689,26.16,83,100,3.18,AO,1680916938
140,lompoc,34.6391,-120.4579,18.16,76,20,5.36,US,1680916952
141,winkler,49.1817,-97.941,-4.0,86,100,2.06,CA,1680917025
142,alice springs,-23.7,133.8833,25.68,35,1,4.63,AU,1680916813
143,nikolskoye,59.7035,30.7861,-1.06,98,27,1.0,RU,1680916902
144,verkh-suetka,53.3,80.05,-8.84,73,6,5.34,RU,1680917026
145,kindu,-2.95,25.95,20.47,98,35,0.51,CD,1680917026
146,bilibino,68.0546,166.4372,-14.06,68,7,0.61,RU,1680916933
147,port augusta,-32.5,137.7667,21.62,47,4,6.47,AU,1680917026
148,carnarvon,-24.8667,113.6333,22.23,56,8,4.84,AU,1680916900
149,miyang,24.4042,103.4428,17.48,71,95,1.93,CN,1680917027
150,shache,38.4167,77.2406,8.17,20,0,1.85,CN,1680917027
151,karabuk,41.2049,32.6277,7.14,93,98,0.58,TR,1680917027
152,maketu,-37.7667,176.45,18.75,49,100,6.43,NZ,1680917028
153,narsaq,60.9167,-46.05,1.12,88,100,2.17,GL,1680916943
154,caravelas,-17.7125,-39.2481,24.11,89,6,1.82,BR,1680917028
155,lagoa,39.05,-27.9833,12.86,60,8,4.71,PT,1680917028
156,port lincoln,-34.7333,135.8667,17.39,56,43,7.15,AU,1680917029
157,iquique,-20.2208,-70.1431,21.02,78,4,0.45,CL,1680916663
158,cabo san lucas,22.8909,-109.9124,25.17,54,0,3.09,MX,1680916950
159,byron bay,-28.65,153.6167,25.95,36,0,6.12,AU,1680917029
160,bacolod,10.6667,122.95,28.69,66,53,4.65,PH,1680917030
161,souillac,-20.5167,57.5167,23.21,94,40,2.06,MU,1680916952
162,hualmay,-11.0964,-77.6139,25.38,77,99,3.96,PE,1680917030
163,guayaramerin,-10.8368,-65.3614,22.43,98,100,0.46,BO,1680917031
164,new glasgow,45.5834,-62.6486,0.99,69,70,6.39,CA,1680917031
165,luorong,24.4058,109.6086,17.91,58,57,4.81,CN,1680917031
166,bathsheba,13.2167,-59.5167,26.34,65,20,9.77,BB,1680916955
167,kaitangata,-46.2817,169.8464,16.07,68,0,3.69,NZ,1680916905
168,dunedin,-45.8742,170.5036,17.26,47,0,6.67,NZ,1680916963
169,karasburg,-28.0167,18.75,14.86,49,0,3.31,NA,1680917032
170,chara,56.9064,118.2631,-3.69,64,99,0.42,RU,1680917033
171,clyde river,70.4692,-68.5914,-25.87,76,0,5.66,CA,1680916960
172,miracema do tocantins,-9.5618,-48.3967,22.94,92,39,1.19,BR,1680917033
173,codrington,-38.2667,141.9667,14.48,69,100,7.18,AU,1680916920
174,kidal,18.4411,1.4078,25.96,16,30,4.57,ML,1680916940
175,novikovo,51.1537,37.8879,7.44,75,100,3.55,RU,1680917034
176,makakilo city,21.3469,-158.0858,26.18,71,75,4.63,US,1680917034
177,vanimo,-2.6741,141.3028,28.4,73,100,1.0,PG,1680917034
178,sokoto,13.0609,5.239,32.79,21,100,1.0,NG,1680916987
179,karlstad,59.3793,13.5036,-0.69,86,42,2.06,SE,1680917035
180,maarianhamina,60.0973,19.9348,1.01,86,0,2.57,AX,1680917035
181,broome,42.2506,-75.833,2.61,57,0,3.09,US,1680916949
182,progreso,21.2833,-89.6667,32.06,76,1,7.68,MX,1680917035
183,poros,37.4994,23.4536,9.36,71,100,1.31,GR,1680917035
184,birjand,32.8663,59.2211,11.26,37,20,3.09,IR,1680917036
185,santa cruz,-17.8,-63.1667,22.7,88,97,3.6,BO,1680917036
186,edmundston,47.3737,-68.3251,-4.58,50,75,10.29,CA,1680916927
187,sao jose da coroa grande,-8.8978,-35.1478,26.36,82,58,2.3,BR,1680917037
188,oktyabrskiy,54.4815,53.471,-0.84,63,0,1.6,RU,1680916745
189,atar,20.5169,-13.0499,24.26,23,100,0.88,MR,1680917037
190,kosa,59.9445,54.9977,-4.22,88,65,1.74,RU,1680917037
191,praia da vitoria,38.7333,-27.0667,12.14,76,20,4.37,PT,1680916929
192,luanda,-8.8368,13.2343,25.0,83,75,2.06,AO,1680916971
193,nhlangano,-27.1167,31.2,13.89,68,0,2.12,SZ,1680917038
194,hay river,60.8156,-115.7999,12.99,38,75,5.14,CA,1680916849
195,taoudenni,22.6783,-3.9836,24.62,14,8,4.13,ML,1680916919
196,bodden town,19.2833,-81.25,26.07,77,20,3.6,KY,1680917038
197,shenjiamen,29.9576,122.298,12.03,55,0,2.99,CN,1680917039
198,suntar,62.1444,117.6319,-15.36,72,30,1.92,RU,1680917039
199,itoman,26.1247,127.6694,20.21,60,75,11.83,JP,1680917039
200,saint george,37.1041,-113.5841,20.8,18,75,3.6,US,1680916813
201,coos bay,43.3665,-124.2179,11.29,72,100,5.14,US,1680916813
202,east london,-33.0153,27.9116,20.37,73,100,4.46,ZA,1680916919
203,malakal,9.5334,31.6605,30.26,11,85,2.1,SS,1680917040
204,mayo,38.8876,-76.5119,12.29,50,0,2.57,US,1680917040
205,castro,-24.7911,-50.0119,15.61,98,100,3.01,BR,1680916917
206,panama city,8.9936,-79.5197,27.43,69,75,3.6,PA,1680917041
207,maracaju,-21.6144,-55.1683,20.67,94,100,2.15,BR,1680917041
208,inongo,-1.95,18.2667,22.4,91,100,2.46,CD,1680917041
209,kirakira,-10.4544,161.9205,30.12,67,33,2.74,SB,1680917042
210,marzuq,14.4,46.4667,20.69,69,64,2.73,YE,1680916916
211,mahibadhoo,3.7833,72.9667,27.76,67,35,0.86,MV,1680916874
212,zalantun,48.0,122.7167,5.04,18,7,2.77,CN,1680917043
213,avarua,-21.2078,-159.775,29.03,79,20,6.17,CK,1680916875
214,port hardy,50.6996,-127.4199,8.1,71,100,3.6,CA,1680917029
215,mutoko,-17.397,32.2268,13.83,95,5,1.2,ZW,1680917044
216,dong hoi,17.4833,106.6,23.7,93,100,3.13,VN,1680917045
217,namatanai,-3.6667,152.4333,28.58,73,100,1.23,PG,1680916991
218,puerto baquerizo moreno,-0.9,-89.6,26.44,78,100,2.25,EC,1680917045
219,lidzbark warminski,54.1259,20.5795,5.97,89,100,1.86,PL,1680917046
220,huescar,37.811,-2.5412,7.29,46,0,0.29,ES,1680917046
221,portland,45.5234,-122.6762,12.56,74,98,3.13,US,1680917340
222,angoche,-16.2325,39.9086,24.56,84,100,1.48,MZ,1680917046
223,gimli,50.6336,-96.9907,-3.99,74,6,2.06,CA,1680916888
224,inuvik,68.3499,-133.7218,-13.58,66,0,4.12,CA,1680917047
225,bethel,41.3712,-73.414,7.72,37,0,5.14,US,1680917048
226,irmo,34.086,-81.1832,9.54,69,100,8.23,US,1680917048
227,chapais,49.7834,-74.8492,-9.12,85,95,5.01,CA,1680917048
228,saint-philippe,-21.3585,55.7679,22.77,86,82,3.48,RE,1680916905
229,sibu,2.3,111.8167,25.17,88,40,0.0,MY,1680917050
230,acajutla,13.5928,-89.8275,26.98,75,27,1.95,SV,1680916790
231,huron,41.1501,-82.5499,4.27,65,100,2.93,US,1680917051
232,broken hill,-31.95,141.4333,19.01,50,2,8.35,AU,1680917051
233,don benito,38.9563,-5.8616,11.36,34,9,1.58,ES,1680917051
234,bandar,2.05,99.75,23.81,93,100,0.56,ID,1680917053
235,atasu,48.6814,71.6433,-0.18,81,69,5.25,KZ,1680917054
236,ayr,55.4627,-4.6339,5.28,81,20,4.12,GB,1680917054
237,luderitz,-26.6481,15.1594,15.36,77,0,7.08,NA,1680916909
238,zhangjiakou,40.81,114.8794,6.51,28,0,2.04,CN,1680917055
239,marawi,7.9986,124.2928,24.33,73,89,2.09,PH,1680917055
240,chumikan,54.7183,135.315,-5.17,87,100,5.59,RU,1680917056
241,yarkovo,57.4028,67.0786,-6.92,52,25,3.54,RU,1680917056
242,caconda,-13.7333,15.0667,15.14,89,97,0.73,AO,1680917057
243,floro,61.5996,5.0328,5.54,70,33,3.6,NO,1680917057
244,port moresby,-9.4431,147.1797,27.68,78,40,7.72,PG,1680916925
245,san carlos de bariloche,-41.1456,-71.3082,7.86,61,0,1.54,AR,1680917058
246,faanui,-16.4833,-151.75,28.65,75,83,9.12,PF,1680916940
247,touros,-5.1989,-35.4608,25.77,88,100,3.21,BR,1680917059
248,arman,59.7,150.1667,-6.27,75,27,0.81,RU,1680917060
249,itarema,-2.9248,-39.9167,24.75,89,64,3.22,BR,1680916911
250,peniche,39.3558,-9.3811,14.69,90,62,0.88,PT,1680916913
251,saint-donat-de-montcalm,46.3187,-74.2219,-1.08,89,48,3.95,CA,1680917060
252,grand-lahou,5.1367,-5.0242,25.79,90,68,2.84,CI,1680917061
253,vikhorevka,56.1201,101.1636,-8.23,69,100,4.55,RU,1680917061
254,lima,-12.0432,-77.0282,26.06,79,40,5.66,PE,1680917423
255,la primavera,5.4906,-70.4092,30.2,47,100,0.79,CO,1680917063
256,te anau,-45.4167,167.7167,14.04,53,0,0.18,NZ,1680916963
257,bajil,15.0584,43.2851,27.55,73,42,1.76,YE,1680917063
258,waren,53.5167,12.6833,4.45,96,98,4.07,DE,1680917064
259,palmer,42.1584,-72.3287,5.75,41,75,6.17,US,1680917064
260,san cristobal,7.7669,-72.225,20.1,74,100,0.56,VE,1680916906
261,parit buntar,5.1267,100.4932,27.99,81,59,1.5,MY,1680917065
262,bardiyah,31.7561,25.0865,15.12,71,100,3.27,LY,1680917065
263,siderno,38.2779,16.302,9.08,68,89,1.96,IT,1680917066
264,tchollire,8.4022,14.1698,31.16,24,70,1.5,CM,1680917066
265,harper,4.375,-7.7169,26.66,84,95,2.4,LR,1680917066
266,lazaro cardenas,17.9583,-102.2,25.9,64,0,3.12,MX,1680917067
267,rudnaya pristan,44.3614,135.8116,5.0,37,6,4.17,RU,1680917067
268,kahului,20.8947,-156.47,26.01,67,40,8.75,US,1680916970
269,divnomorskoye,44.5011,38.1353,8.81,92,100,1.19,RU,1680917068
270,mandal,25.45,74.5667,22.52,25,84,1.72,IN,1680917068
271,idah,7.1065,6.7342,27.18,77,100,2.13,NG,1680917069
272,lakselv,70.0513,24.9718,2.9,81,100,11.83,NO,1680917070
273,along,28.1667,94.7667,19.12,70,17,0.62,IN,1680917070
274,upernavik,72.7868,-56.1549,-28.54,99,44,5.71,GL,1680916928
275,hofn,64.2539,-15.2082,7.15,93,100,11.93,IS,1680916933
276,tiznit,29.5833,-9.5,17.03,60,75,0.49,MA,1680917072
277,palora,-1.7,-77.9333,19.45,98,100,0.67,EC,1680917072
278,itupeva,-23.1531,-47.0578,20.58,94,75,1.54,BR,1680917072
279,grindavik,63.8424,-22.4338,8.97,81,75,13.38,IS,1680917074
280,mandan,46.8267,-100.8896,-0.91,85,0,6.69,US,1680917075
281,takoradi,4.8845,-1.7554,26.39,86,100,2.86,GH,1680917075
282,hasaki,35.7333,140.8333,19.22,61,1,4.01,JP,1680917075
283,araouane,18.9048,-3.5265,25.08,13,19,4.07,ML,1680917076
284,kpandae,8.4689,-0.0113,26.72,66,100,3.76,GH,1680917076
285,namibe,-15.1961,12.1522,23.95,78,91,3.31,AO,1680917076
286,beaverlodge,55.2166,-119.4361,7.64,82,100,4.76,CA,1680917076
287,santa rosalia,27.3167,-112.2833,19.48,27,0,1.34,MX,1680917077
288,nabire,-3.3667,135.4833,27.06,79,100,0.55,ID,1680917077
289,beloha,-25.1667,45.05,22.65,88,49,1.66,MG,1680917078
290,ornskoldsvik,63.2909,18.7153,-0.47,74,100,3.09,SE,1680917078
291,loandjili,-4.7561,11.8578,26.31,85,100,1.4,CG,1680917078
292,katherine,-14.4667,132.2667,32.18,51,98,5.14,AU,1680917079
293,biak,-0.9131,122.8766,27.07,69,100,1.56,ID,1680917079
294,bubaque,11.2833,-15.8333,24.98,72,48,7.33,GW,1680917079
295,isangel,-19.55,169.2667,27.85,70,22,1.54,VU,1680917080
296,margate,51.3813,1.3862,5.94,93,5,2.11,GB,1680917005
297,severo-kurilsk,50.6789,156.125,0.42,98,100,10.04,RU,1680917080
298,pemberton,50.3164,-122.8027,10.83,91,100,2.69,CA,1680917080
299,pangody,65.85,74.4859,-3.86,93,100,8.36,RU,1680916959
300,harlow,51.7766,0.1116,6.98,92,0,1.54,GB,1680917081
301,portobelo,9.55,-79.65,23.95,85,100,3.24,PA,1680916990
302,gazli,40.1333,63.45,15.86,59,88,5.06,UZ,1680917082
303,lorengau,-2.0226,147.2712,28.44,70,100,3.96,PG,1680917082
304,maraa,-1.8333,-65.3667,23.31,97,99,0.9,BR,1680917082
305,haines junction,60.7522,-137.5108,3.97,41,100,3.6,CA,1680916947
306,kiruna,67.8557,20.2251,-1.49,80,100,5.66,SE,1680917083
307,nanortalik,60.1432,-45.2371,-1.14,92,100,2.38,GL,1680917083
308,egvekinot,66.3167,-179.1667,-20.18,84,78,0.31,RU,1680917083
309,westport,41.1415,-73.3579,9.32,35,0,4.12,US,1680917083
310,lata,40.1629,-8.3327,11.15,64,81,1.01,PT,1680916915
311,tura,25.5198,90.2201,22.72,48,1,0.86,IN,1680917084
312,muzaffargarh,30.0754,71.1921,21.01,34,0,1.36,PK,1680917084
313,castelo branco,39.8222,-7.4909,12.22,56,26,0.39,PT,1680917084
314,hirara,24.8,125.2833,21.15,56,40,10.8,JP,1680917085
315,dikson,73.5069,80.5464,-32.08,92,5,3.48,RU,1680917512
316,mabaruma,8.2,-59.7833,23.67,81,100,2.52,GY,1680917085
317,gobabis,-22.45,18.9667,18.94,54,30,2.12,NA,1680917085
318,chapayeve,49.3662,35.8749,7.35,85,98,3.72,UA,1680917086
319,montecristo,8.2971,-74.4733,23.07,95,100,1.56,CO,1680917086
320,deputatskiy,69.3,139.9,-21.94,99,100,1.98,RU,1680916959
321,praya,14.9215,-23.5087,22.3,73,40,6.69,CV,1680917086
322,dwarka,22.2394,68.9678,24.55,73,7,5.48,IN,1680917087
323,dubbo,-32.25,148.6167,19.07,59,75,9.26,AU,1680917087
324,great falls,47.5002,-111.3008,13.66,22,0,6.17,US,1680917087
325,cockburn town,21.4612,-71.1419,24.79,72,100,7.58,TC,1680916941
326,eureka,40.8021,-124.1637,12.64,80,100,1.34,US,1680916846
327,artesia,33.8658,-118.0831,21.71,54,0,4.63,US,1680917088
328,rio casca,-20.2261,-42.6508,21.44,90,21,0.46,BR,1680917088
329,kieta,-6.2167,155.6333,30.07,66,100,1.94,PG,1680917088
330,kokopo,-4.352,152.2633,28.72,69,100,2.08,PG,1680917088
331,iqaluit,63.7506,-68.5145,-24.15,77,20,4.12,CA,1680916961
332,saint-pierre,-21.3393,55.4781,23.09,73,0,3.09,RE,1680917089
333,bouna,9.2667,-3.0,23.66,84,100,1.24,CI,1680917089
334,kutum,14.2,24.6667,21.61,12,86,3.02,SD,1680917089
335,saint anthony,45.0205,-93.218,6.79,57,0,6.69,US,1680917090
336,marystown,47.1666,-55.1483,1.59,100,61,3.13,CA,1680917042
337,waddan,29.1614,16.139,15.8,47,83,9.69,LY,1680917090
338,dukat,62.55,155.55,-10.56,72,13,1.5,RU,1680917090
339,luganville,-15.5333,167.1667,30.05,71,23,3.74,VU,1680917090
340,kramat,-8.1311,113.4499,27.03,73,78,0.7,ID,1680917091
341,andenes,69.3143,16.1194,2.99,81,100,5.14,NO,1680917091
342,yenagoa,4.9247,6.2642,25.55,92,100,1.22,NG,1680917091
343,klaksvik,62.2266,-6.589,7.51,94,42,9.55,FO,1680917519
344,luena,-11.7833,19.9167,17.04,77,100,1.27,AO,1680917092
345,pisco,-13.7,-76.2167,25.01,83,20,6.17,PE,1680916725
346,cayenne,4.9333,-52.3333,24.02,83,20,0.0,GF,1680917092
347,bonavista,48.6499,-53.1147,0.51,81,69,9.33,CA,1680917092
348,nishihara,26.1842,127.7558,19.81,59,75,11.83,JP,1680917093
349,thompson,55.7435,-97.8558,4.09,33,20,3.6,CA,1680917520
350,batagay,67.6333,134.6333,-18.22,76,100,3.22,RU,1680917093
351,warmbad,-28.45,18.7333,16.41,60,0,4.04,NA,1680916875
352,liberal,37.0431,-100.921,17.08,12,0,6.69,US,1680917093
353,sitka,57.0531,-135.33,5.94,70,75,2.57,US,1680917094
354,youkounkoun,12.5333,-13.1333,28.22,39,41,3.86,GN,1680917094
355,mareeba,-17.0,145.4333,30.82,73,100,1.91,AU,1680917094
356,bud,39.447,-86.1758,10.93,44,100,3.4,US,1680917094
357,lavrentiya,65.5833,-171.0,-19.1,69,96,3.22,RU,1680917095
358,doha,25.2867,51.5333,21.17,64,0,2.06,QA,1680916887
359,conakry,9.538,-13.6773,27.04,83,0,1.03,GN,1680917095
360,irbeyskoye,55.6428,95.4522,-8.88,79,100,3.1,RU,1680917096
361,tartus,34.889,35.8866,14.76,75,92,2.82,SY,1680917096
362,dunhua,43.3725,128.2425,0.74,49,99,7.45,CN,1680917096
363,richards bay,-28.783,32.0377,21.08,95,45,4.26,ZA,1680917096
364,sorland,67.667,12.6934,4.92,84,100,10.46,NO,1680916933
365,loiza,18.4313,-65.8802,26.0,89,20,0.0,PR,1680917097
366,bandarbeyla,9.4942,50.8122,26.7,72,73,3.01,SO,1680917097
367,cap-aux-meules,47.3821,-61.8597,0.03,74,75,7.2,CA,1680917097
368,hailar,49.2,119.7,5.39,24,6,5.44,CN,1680917097
369,sao felix do xingu,-6.6447,-51.995,20.8,99,94,0.58,BR,1680917098
370,constitucion,-35.3333,-72.4167,15.19,54,61,4.39,CL,1680917019
371,levelland,33.5873,-102.378,15.66,30,100,4.79,US,1680916859
372,vila,42.0304,-8.1588,9.49,45,94,1.42,PT,1680917528
373,moberly,39.4184,-92.4382,10.99,37,0,2.57,US,1680917098
374,dingle,10.9995,122.6711,29.0,64,30,4.83,PH,1680917099
375,songea,-10.6833,35.65,16.7,99,78,0.92,TZ,1680917099
376,stribro,49.7529,13.0041,4.7,100,100,1.28,CZ,1680917099
377,lensk,60.7253,114.9278,-12.64,74,100,5.66,RU,1680917099
378,maldonado,-34.6667,-54.9167,19.52,89,0,1.39,UY,1680916863
379,rionegro,6.1552,-75.3737,15.96,99,75,1.03,CO,1680917100
380,pevek,69.7008,170.3133,-23.91,92,84,0.7,RU,1680916921
381,svetlaya,46.5389,138.3297,3.78,76,100,1.37,RU,1680917100
382,meulaboh,4.1363,96.1285,25.09,86,100,1.89,ID,1680917101
383,poddorye,57.4695,31.1156,1.45,86,0,1.62,RU,1680917101
384,libenge,3.65,18.6333,24.07,72,41,1.3,CD,1680917101
385,sanandaj,35.3144,46.9923,2.01,70,0,0.0,IR,1680916803
386,honningsvag,70.9821,25.9704,2.86,87,100,7.72,NO,1680917102
387,teruel,40.6667,-0.6667,7.52,41,56,1.77,ES,1680917102
388,saint-augustin,51.226,-58.6502,-1.19,62,83,7.66,CA,1680917102
389,banda aceh,5.5577,95.3222,26.78,79,100,1.74,ID,1680917103
390,sompeta,18.9333,84.6,26.61,72,0,1.98,IN,1680917103
391,lunel,43.6778,4.1361,10.53,57,0,4.63,FR,1680917104
392,lerwick,60.1545,-1.1494,7.0,89,14,7.5,GB,1680917104
393,geraldton,-28.7667,114.6,21.23,56,0,4.63,AU,1680917104
394,yar-sale,66.8333,70.8333,-9.04,94,100,7.03,RU,1680917105
395,road town,18.4167,-64.6167,26.02,69,40,6.69,VG,1680917106
396,zhezkazgan,47.8043,67.7144,0.99,80,100,8.0,KZ,1680917106
397,ferme-neuve,46.7001,-75.4493,-5.4,86,59,3.05,CA,1680917106
398,harur,12.0667,78.5,22.34,82,4,1.37,IN,1680917106
399,laksar,29.7667,78.05,16.02,37,0,1.23,IN,1680917107
400,nemuro,43.3236,145.575,2.53,96,100,3.27,JP,1680917107
401,port blair,11.6667,92.75,27.02,83,20,1.03,IN,1680916951
402,inverness,57.4791,-4.224,5.95,93,8,0.0,GB,1680916988
403,borgarnes,64.5383,-21.9206,9.34,76,100,11.33,IS,1680917103
404,praia,14.9215,-23.5087,22.3,73,40,6.69,CV,1680917108
405,ambon,-3.6954,128.1814,29.08,74,40,2.57,ID,1680916939
406,tarancon,40.0085,-3.0073,11.07,29,7,1.26,ES,1680917109
407,naze,28.3667,129.4833,18.51,57,0,8.79,JP,1680917109
408,otjiwarongo,-20.4637,16.6477,17.0,50,100,2.35,NA,1680917110
409,mayskiy,47.6931,40.1025,10.67,80,100,4.12,RU,1680917540
410,gizo,-8.103,156.8419,29.28,65,100,1.23,SB,1680917110
411,silale,55.4906,22.1814,9.0,96,100,1.84,LT,1680917111
412,sao miguel do araguaia,-13.275,-50.1628,23.02,88,100,1.28,BR,1680917111
413,severo-yeniseyskiy,60.3725,93.0408,-22.01,97,100,3.37,RU,1680917111
414,urucui,-7.2294,-44.5561,24.31,84,100,0.7,BR,1680917112
415,kholodnyy,62.7167,147.95,-16.4,80,100,1.13,RU,1680917112
416,sao goncalo do amarante,-3.6072,-38.9683,25.63,95,71,1.44,BR,1680917112
417,allapalli,19.4167,80.0667,27.12,50,100,0.94,IN,1680917113
418,kheralu,23.8833,72.6167,23.19,29,1,2.44,IN,1680917113
419,manicore,-5.8092,-61.3003,22.51,93,90,0.79,BR,1680917113
420,nhulunbuy,-12.2333,136.7667,30.34,74,75,3.6,AU,1680917115
421,vilhena,-12.7406,-60.1458,19.87,98,97,1.08,BR,1680917096
422,ucluelet,48.9329,-125.5528,7.83,86,100,3.42,CA,1680917116
423,ust-uda,54.1742,103.0304,-3.14,76,100,5.57,RU,1680917116
424,houma,29.5958,-90.7195,21.67,92,75,2.57,US,1680917037
425,alofi,-19.0595,-169.9187,28.94,70,23,5.14,NU,1680917545
426,kruisfontein,-34.0033,24.7314,16.05,85,100,3.44,ZA,1680917118
427,imeni poliny osipenko,52.4201,136.4853,-2.53,90,100,6.47,RU,1680917118
428,copiapo,-27.3667,-70.3333,15.83,65,0,0.31,CL,1680917118
429,uberaba,-19.7483,-47.9319,20.32,100,100,3.6,BR,1680916953
430,hervey bay,-25.2986,152.8535,27.67,50,0,4.28,AU,1680917031
431,yagodnoye,62.55,149.6667,-12.74,77,11,0.94,RU,1680917120
432,lambarene,-0.7001,10.2406,24.42,97,100,0.53,GA,1680917120
433,ewa beach,21.3156,-158.0072,26.97,72,75,4.63,US,1680917121
434,pimentel,-6.8367,-79.9342,28.16,78,75,3.6,PE,1680917121
435,santa helena de goias,-17.8136,-50.5969,21.8,88,91,0.13,BR,1680916869
436,evensk,61.95,159.2333,-12.6,86,41,0.91,RU,1680917123
437,malinovoye ozero,51.6753,79.7825,-4.27,67,100,6.27,RU,1680917123
438,saint albans,51.75,-0.3333,6.1,93,1,2.06,GB,1680917124
439,san rafael,-34.6177,-68.3301,22.7,43,69,3.54,AR,1680917124
440,manggar,-2.8833,108.2667,26.88,73,97,1.16,ID,1680917124
441,okhotsk,59.3833,143.3,-10.5,73,14,4.48,RU,1680917126
442,puerto del rosario,28.5004,-13.8627,17.86,72,20,2.06,ES,1680917126
443,sioux lookout,50.1001,-91.917,-0.96,55,20,1.03,CA,1680917084
444,salinas,36.6777,-121.6555,17.05,72,100,3.6,US,1680917127
445,sumter,28.7086,-82.0831,25.57,74,96,2.39,US,1680917127
446,anshun,26.25,105.9333,8.74,84,100,4.48,CN,1680916981
447,orapa,-21.2833,25.3667,21.02,40,0,2.52,BW,1680917128
448,kyren,51.6828,102.1408,4.97,47,100,1.02,RU,1680917128
449,zelenoborskiy,66.845,32.3622,1.21,93,100,4.46,RU,1680917129
450,ternate,0.8,127.4,27.66,79,100,4.18,ID,1680917129
451,show low,34.2542,-110.0298,14.78,17,0,6.69,US,1680917129
452,vanavara,60.34,102.2797,-21.56,83,71,5.71,RU,1680917130
453,hermiston,45.8404,-119.2895,17.27,56,75,3.09,US,1680916834
454,orlik,52.5178,99.825,-3.79,66,50,0.97,RU,1680917131
455,ayan,56.45,138.1667,-5.38,77,95,4.0,RU,1680917132
456,avera,33.194,-82.5271,11.88,88,100,7.47,US,1680917132
457,dryden,49.7833,-92.7503,1.16,44,0,1.03,CA,1680917132
458,cazones,20.7167,-97.3167,19.89,100,100,2.57,MX,1680917133
459,verkhniy landekh,56.8389,42.5994,-0.45,80,5,2.35,RU,1680917133
460,kalabo,-14.97,22.6814,18.25,78,100,1.38,ZM,1680917133
461,aksha,50.2814,113.2867,5.83,39,5,2.26,RU,1680917134
462,straumen,63.8709,11.2999,2.0,81,100,2.38,NO,1680917134
463,yayva,59.3303,57.2641,-4.89,88,19,1.29,RU,1680917134
464,balaipungut,1.05,101.2833,24.25,90,100,1.45,ID,1680917135
465,san lazaro,18.0387,-88.6622,23.95,74,0,2.42,BZ,1680917135
466,sassandra,4.95,-6.0833,25.41,91,33,2.54,CI,1680917135
467,tucuman,-26.8241,-65.2226,20.0,83,0,3.09,AR,1680916889
468,talnakh,69.4865,88.3972,-33.55,93,28,1.32,RU,1680917136
469,kununurra,-15.7667,128.7333,29.99,74,100,2.57,AU,1680917136
470,murakami,38.2333,139.4833,12.94,77,100,4.47,JP,1680917137
471,pasni,25.2631,63.471,23.01,68,0,2.76,PK,1680917137
472,magadan,59.5667,150.8,-7.17,73,21,0.75,RU,1680917137
473,san lorenzo,-25.3333,-57.5333,20.52,88,0,0.0,PY,1680917137
474,akoupe,6.39,-3.9003,22.7,97,100,1.02,CI,1680917138
475,beira,-19.8436,34.8389,22.05,100,0,2.06,MZ,1680917138
476,maniitsoq,65.4167,-52.9,-2.89,68,100,6.81,GL,1680917139
477,tayoltita,24.0833,-105.9333,21.21,27,0,2.1,MX,1680917139
478,mehran,33.1222,46.1646,19.63,23,0,0.97,IR,1680917030
479,santa margherita ligure,44.3346,9.212,10.97,88,100,3.31,IT,1680917139
480,dicabisagan,17.0818,122.4157,27.46,68,100,3.51,PH,1680917139
481,salalah,17.0151,54.0924,27.05,74,20,1.03,OM,1680917140
482,sondrio,46.169,9.8692,8.21,70,85,0.45,IT,1680917140
483,longyearbyen,78.2186,15.6401,-11.09,73,75,4.63,SJ,1680917564
484,botou,38.0667,116.5667,13.83,25,0,5.01,CN,1680917141
485,hamilton,39.1834,-84.5333,10.0,50,0,4.12,US,1680917363
486,jiblah,13.9216,44.1467,16.36,72,89,1.59,YE,1680917141
487,datong,40.0936,113.2914,5.37,26,3,3.13,CN,1680917142
488,jiazi,22.8779,116.067,19.33,70,48,9.1,CN,1680917142
489,provideniya,64.3833,-173.3,-18.52,70,22,1.53,RU,1680917565
490,pacific grove,36.6177,-121.9166,15.5,80,100,4.92,US,1680916940
491,berlevag,70.8578,29.0864,2.0,87,100,4.12,NO,1680917143
492,ilam,26.9167,87.9167,17.93,43,19,2.25,NP,1680917143
493,manacapuru,-3.2997,-60.6206,24.52,88,52,2.3,BR,1680917143
494,broadview heights,41.3139,-81.6851,3.61,59,40,3.09,US,1680917143
495,coalinga,36.1397,-120.3602,21.14,39,100,1.3,US,1680917143
496,emerald,-23.5333,148.1667,27.97,39,0,5.96,AU,1680917144
497,moose factory,51.2585,-80.6094,-4.0,50,20,2.57,CA,1680917144
498,matay,28.419,30.7792,20.43,37,37,1.76,EG,1680917144
499,kurilsk,45.2333,147.8833,1.88,97,100,1.88,RU,1680917145
500,muncar,-8.4333,114.3333,26.83,76,81,0.81,ID,1680917145
501,bengkulu,-3.8004,102.2655,27.51,70,54,1.31,ID,1680917568
502,oriximina,-1.7656,-55.8661,23.41,92,81,1.48,BR,1680917145
503,nouadhibou,20.931,-17.0347,17.99,88,66,6.17,MR,1680917569
504,ukiah,39.1502,-123.2078,15.24,67,40,2.68,US,1680917146
505,tual,-5.6667,132.75,27.77,80,98,7.31,ID,1680917146
506,pangnirtung,66.1451,-65.7125,-23.7,87,36,2.8,CA,1680917146
507,hobyo,5.3505,48.5268,27.21,64,16,5.93,SO,1680917147
508,leningradskiy,69.3833,178.4167,-21.03,91,100,4.8,RU,1680916909
509,laguna,38.421,-121.4238,17.1,68,40,4.12,US,1680916898
510,arona,28.0996,-16.681,14.12,71,20,1.54,ES,1680917147
511,wagar,16.1525,36.2032,24.23,59,2,4.79,SD,1680917112
512,emba,48.8264,58.1442,3.81,73,76,8.93,KZ,1680917148
513,fort saint james,54.4333,-124.25,5.61,74,29,3.19,CA,1680917148
514,carman,49.4992,-98.0016,-5.81,86,100,2.57,CA,1680917148
515,kargasok,59.0556,80.8572,-12.26,82,96,5.97,RU,1680917149
516,gorontalo,0.5412,123.0595,28.29,78,67,2.31,ID,1680917149
517,chake chake,-5.2459,39.7666,26.01,80,100,2.25,TZ,1680917039
518,reconquista,-29.15,-59.65,19.38,73,0,3.28,AR,1680917149
519,mormugao,15.4,73.8,26.59,83,75,1.54,IN,1680917150
520,zaranj,30.9667,61.8833,23.02,20,8,2.97,AF,1680917150
521,vila velha,-20.3297,-40.2925,25.97,91,75,1.54,BR,1680917152
522,gilbues,-9.8317,-45.3439,25.02,59,55,0.25,BR,1680917152
523,rocha,-34.4833,-54.3333,13.53,86,0,0.73,UY,1680917574
524,rocky mountain house,52.3668,-114.9188,7.06,61,100,2.06,CA,1680916887
525,omaruru,-21.4333,15.9333,17.67,48,43,1.99,NA,1680917153
526,lop buri,14.7981,100.654,29.16,64,94,3.69,TH,1680917153
527,haikou,20.0458,110.3417,23.07,88,100,5.0,CN,1680917153
528,smirnykh,49.75,142.8333,1.24,90,93,1.95,RU,1680917153
529,havre-saint-pierre,50.2334,-63.5986,-1.8,46,100,9.26,CA,1680917153
530,salinopolis,-0.6136,-47.3561,25.32,82,100,3.83,BR,1680917154
531,saldanha,-33.0117,17.9442,15.27,80,100,8.91,ZA,1680917154
532,faya,18.3851,42.4509,15.06,78,59,2.97,SA,1680917576
533,cabo rojo,18.0866,-67.1457,22.76,73,100,3.45,PR,1680917154
534,yeppoon,-23.1333,150.7333,30.88,57,10,2.96,AU,1680917155
535,dalvik,65.9702,-18.5286,8.96,91,93,2.47,IS,1680917577
536,lingao,19.9103,109.6859,22.74,88,100,8.24,CN,1680917577
537,dhidhdhoo,6.8833,73.1,28.15,71,47,3.18,MV,1680917577
538,aklavik,68.2191,-135.0107,-13.2,90,100,3.51,CA,1680917578
539,revda,56.801,59.9303,-4.86,54,21,2.07,RU,1680917578
540,oussouye,12.485,-16.5469,24.1,76,12,3.86,SN,1680917578
541,usinsk,65.9939,57.5281,0.31,89,93,8.86,RU,1680917579
542,tazmalt,36.3868,4.3989,9.55,45,0,1.1,DZ,1680917579
543,chimbote,-9.0853,-78.5783,26.14,73,100,2.37,PE,1680917579
544,terra roxa,-23.8557,-50.0314,17.66,97,97,1.76,BR,1680917579
545,buraydah,26.326,43.975,17.25,43,90,3.19,SA,1680917580
546,linxia,35.6003,103.2064,9.2,43,0,0.71,CN,1680917580
547,bida,9.0833,6.0167,28.9,52,100,2.18,NG,1680917580
548,mackenzie,55.2999,-123.1698,6.12,45,75,5.66,CA,1680917436
549,calbuco,-41.768,-73.1273,10.56,84,100,5.82,CL,1680917580
